<?xml version="1.0" encoding="UTF-8"?>
<Document>
	<Folder>
		<Placemark>
				<name>Симферополь </name>
				<LookAt>
						<longitude>33.987374</longitude>
						<latitude>45.03712</latitude>
						<altitude>0</altitude>
						<heading>2.0</heading>
						<tilt>1.0</tilt>
						<range>1000000.00000</range>
						<altitudeMode>relativeToSeaFloor</altitudeMode>
				</LookAt>
				<styleUrl>#msn_placemark_square</styleUrl>
				<Point>
						<drawOrder>1</drawOrder>
						<coordinates>33.987374,45.03712,0</coordinates>
				</Point>
		</Placemark>
		<Placemark>
				<name>Краснодар(Пашковский) </name>
				<LookAt>
						<longitude>39.139429</longitude>
						<latitude>45.034881</latitude>
						<altitude>0</altitude>
						<heading>2.0</heading>
						<tilt>1.0</tilt>
						<range>1000000.00000</range>
						<altitudeMode>relativeToSeaFloor</altitudeMode>
				</LookAt>
				<styleUrl>#msn_placemark_square</styleUrl>
				<Point>
						<drawOrder>1</drawOrder>
						<coordinates>39.139429,45.034881,0</coordinates>
				</Point>
		</Placemark>
		<Placemark>
				<name>Махачкала </name>
				<LookAt>
						<longitude>47.657068</longitude>
						<latitude>42.819274</latitude>
						<altitude>0</altitude>
						<heading>2.0</heading>
						<tilt>1.0</tilt>
						<range>1000000.00000</range>
						<altitudeMode>relativeToSeaFloor</altitudeMode>
				</LookAt>
				<styleUrl>#msn_placemark_square</styleUrl>
				<Point>
						<drawOrder>1</drawOrder>
						<coordinates>47.657068,42.819274,0</coordinates>
				</Point>
		</Placemark>
		<Placemark>
				<name>Волгоград(Гумрак) </name>
				<LookAt>
						<longitude>44.346368</longitude>
						<latitude>48.791307</latitude>
						<altitude>0</altitude>
						<heading>2.0</heading>
						<tilt>1.0</tilt>
						<range>1000000.00000</range>
						<altitudeMode>relativeToSeaFloor</altitudeMode>
				</LookAt>
				<styleUrl>#msn_placemark_square</styleUrl>
				<Point>
						<drawOrder>1</drawOrder>
						<coordinates>44.346368,48.791307,0</coordinates>
				</Point>
		</Placemark>
		<Placemark>
				<name>Воронеж </name>
				<LookAt>
						<longitude>39.223548</longitude>
						<latitude>51.813805</latitude>
						<altitude>0</altitude>
						<heading>2.0</heading>
						<tilt>1.0</tilt>
						<range>1000000.00000</range>
						<altitudeMode>relativeToSeaFloor</altitudeMode>
				</LookAt>
				<styleUrl>#msn_placemark_square</styleUrl>
				<Point>
						<drawOrder>1</drawOrder>
						<coordinates>39.223548,51.813805,0</coordinates>
				</Point>
		</Placemark>
		<Placemark>
				<name>Самара(Курумоч) </name>
				<LookAt>
						<longitude>50.139505</longitude>
						<latitude>53.505136</latitude>
						<altitude>0</altitude>
						<heading>2.0</heading>
						<tilt>1.0</tilt>
						<range>1000000.00000</range>
						<altitudeMode>relativeToSeaFloor</altitudeMode>
				</LookAt>
				<styleUrl>#msn_placemark_square</styleUrl>
				<Point>
						<drawOrder>1</drawOrder>
						<coordinates>50.139505,53.505136,0</coordinates>
				</Point>
		</Placemark>
		<Placemark>
				<name>Оренбург </name>
				<LookAt>
						<longitude>55.459502</longitude>
						<latitude>51.790578</latitude>
						<altitude>0</altitude>
						<heading>2.0</heading>
						<tilt>1.0</tilt>
						<range>1000000.00000</range>
						<altitudeMode>relativeToSeaFloor</altitudeMode>
				</LookAt>
				<styleUrl>#msn_placemark_square</styleUrl>
				<Point>
						<drawOrder>1</drawOrder>
						<coordinates>55.459502,51.790578,0</coordinates>
				</Point>
		</Placemark>
		<Placemark>
				<name>Уфа </name>
				<LookAt>
						<longitude>55.882453</longitude>
						<latitude>54.566267</latitude>
						<altitude>0</altitude>
						<heading>2.0</heading>
						<tilt>1.0</tilt>
						<range>1000000.00000</range>
						<altitudeMode>relativeToSeaFloor</altitudeMode>
				</LookAt>
				<styleUrl>#msn_placemark_square</styleUrl>
				<Point>
						<drawOrder>1</drawOrder>
						<coordinates>55.882453,54.566267,0</coordinates>
				</Point>
		</Placemark>
		<Placemark>
				<name>АППЦ Нижний Новгород </name>
				<LookAt>
						<longitude>43.815038</longitude>
						<latitude>56.224279</latitude>
						<altitude>0</altitude>
						<heading>2.0</heading>
						<tilt>1.0</tilt>
						<range>1000000.00000</range>
						<altitudeMode>relativeToSeaFloor</altitudeMode>
				</LookAt>
				<styleUrl>#msn_placemark_square</styleUrl>
				<Point>
						<drawOrder>1</drawOrder>
						<coordinates>43.815038,56.224279,0</coordinates>
				</Point>
		</Placemark>
		<Placemark>
				<name>Смоленск </name>
				<LookAt>
						<longitude>32.033078</longitude>
						<latitude>54.821699</latitude>
						<altitude>0</altitude>
						<heading>2.0</heading>
						<tilt>1.0</tilt>
						<range>1000000.00000</range>
						<altitudeMode>relativeToSeaFloor</altitudeMode>
				</LookAt>
				<styleUrl>#msn_placemark_square</styleUrl>
				<Point>
						<drawOrder>1</drawOrder>
						<coordinates>32.033078,54.821699,0</coordinates>
				</Point>
		</Placemark>
		<Placemark>
				<name>Пулково </name>
				<LookAt>
						<longitude>30.261402</longitude>
						<latitude>59.801532</latitude>
						<altitude>0</altitude>
						<heading>2.0</heading>
						<tilt>1.0</tilt>
						<range>1000000.00000</range>
						<altitudeMode>relativeToSeaFloor</altitudeMode>
				</LookAt>
				<styleUrl>#msn_placemark_square</styleUrl>
				<Point>
						<drawOrder>1</drawOrder>
						<coordinates>30.261402,59.801532,0</coordinates>
				</Point>
		</Placemark>
		<Placemark>
				<name>Архангельск </name>
				<LookAt>
						<longitude>40.712159</longitude>
						<latitude>64.596257</latitude>
						<altitude>0</altitude>
						<heading>2.0</heading>
						<tilt>1.0</tilt>
						<range>1000000.00000</range>
						<altitudeMode>relativeToSeaFloor</altitudeMode>
				</LookAt>
				<styleUrl>#msn_placemark_square</styleUrl>
				<Point>
						<drawOrder>1</drawOrder>
						<coordinates>40.712159,64.596257,0</coordinates>
				</Point>
		</Placemark>
		<Placemark>
				<name>Салехард </name>
				<LookAt>
						<longitude>66.588707</longitude>
						<latitude>66.590343</latitude>
						<altitude>0</altitude>
						<heading>2.0</heading>
						<tilt>1.0</tilt>
						<range>1000000.00000</range>
						<altitudeMode>relativeToSeaFloor</altitudeMode>
				</LookAt>
				<styleUrl>#msn_placemark_square</styleUrl>
				<Point>
						<drawOrder>1</drawOrder>
						<coordinates>66.588707,66.590343,0</coordinates>
				</Point>
		</Placemark>
		<Placemark>
				<name>ПРЦ Нарьян-Мар </name>
				<LookAt>
						<longitude>53.12528</longitude>
						<latitude>67.64278</latitude>
						<altitude>0</altitude>
						<heading>2.0</heading>
						<tilt>1.0</tilt>
						<range>1000000.00000</range>
						<altitudeMode>relativeToSeaFloor</altitudeMode>
				</LookAt>
				<styleUrl>#msn_placemark_square</styleUrl>
				<Point>
						<drawOrder>1</drawOrder>
						<coordinates>53.12528,67.64278,0</coordinates>
				</Point>
		</Placemark>

		<Placemark>
				<name>ПРЦ Сыктывкар </name>
				<LookAt>
						<longitude>50.53037</longitude>
						<latitude>61.637975</latitude>
						<altitude>0</altitude>
						<heading>2.0</heading>
						<tilt>1.0</tilt>
						<range>1000000.00000</range>
						<altitudeMode>relativeToSeaFloor</altitudeMode>
				</LookAt>
				<styleUrl>#msn_placemark_square</styleUrl>
				<Point>
						<drawOrder>1</drawOrder>
						<coordinates>50.53037,61.637975,0</coordinates>
				</Point>
		</Placemark>
		<Placemark>
				<name>Москва(Внуково) </name>
				<LookAt>
						<longitude>37.274268</longitude>
						<latitude>55.590022</latitude>
						<altitude>0</altitude>
						<heading>2.0</heading>
						<tilt>1.0</tilt>
						<range>1000000.00000</range>
						<altitudeMode>relativeToSeaFloor</altitudeMode>
				</LookAt>
				<styleUrl>#msn_placemark_square</styleUrl>
				<Point>
						<drawOrder>1</drawOrder>
						<coordinates>37.274268,55.590022,0</coordinates>
				</Point>
		</Placemark>
		<Placemark>
				<name>Череповец </name>
				<LookAt>
						<longitude>38.023471</longitude>
						<latitude>59.282022</latitude>
						<altitude>0</altitude>
						<heading>2.0</heading>
						<tilt>1.0</tilt>
						<range>1000000.00000</range>
						<altitudeMode>relativeToSeaFloor</altitudeMode>
				</LookAt>
				<styleUrl>#msn_placemark_square</styleUrl>
				<Point>
						<drawOrder>1</drawOrder>
						<coordinates>38.023471,59.282022,0</coordinates>
				</Point>
		</Placemark>
		<Placemark>
				<name>Сегежа </name>
				<LookAt>
						<longitude>34.30238</longitude>
						<latitude>63.744109</latitude>
						<altitude>0</altitude>
						<heading>2.0</heading>
						<tilt>1.0</tilt>
						<range>1000000.00000</range>
						<altitudeMode>relativeToSeaFloor</altitudeMode>
				</LookAt>
				<styleUrl>#msn_placemark_square</styleUrl>
				<Point>
						<drawOrder>1</drawOrder>
						<coordinates>34.30238,63.744109,0</coordinates>
				</Point>
		</Placemark>
		<Placemark>
				<name>Ухта </name>
				<LookAt>
						<longitude>53.737281</longitude>
						<latitude>63.557351</latitude>
						<altitude>0</altitude>
						<heading>2.0</heading>
						<tilt>1.0</tilt>
						<range>1000000.00000</range>
						<altitudeMode>relativeToSeaFloor</altitudeMode>
				</LookAt>
				<styleUrl>#msn_placemark_square</styleUrl>
				<Point>
						<drawOrder>1</drawOrder>
						<coordinates>53.737281,63.557351,0</coordinates>
				</Point>
		</Placemark>
		<Placemark>
				<name>Саратов </name>
				<LookAt>
						<longitude>46.16987</longitude>
						<latitude>51.718256</latitude>
						<altitude>0</altitude>
						<heading>2.0</heading>
						<tilt>1.0</tilt>
						<range>1000000.00000</range>
						<altitudeMode>relativeToSeaFloor</altitudeMode>
				</LookAt>
				<styleUrl>#msn_placemark_square</styleUrl>
				<Point>
						<drawOrder>1</drawOrder>
						<coordinates>46.16987,51.718256,0</coordinates>
				</Point>
		</Placemark>
		<Placemark>
				<name>Печора </name>
				<LookAt>
						<longitude>57.235033</longitude>
						<latitude>65.158227</latitude>
						<altitude>0</altitude>
						<heading>2.0</heading>
						<tilt>1.0</tilt>
						<range>1000000.00000</range>
						<altitudeMode>relativeToSeaFloor</altitudeMode>
				</LookAt>
				<styleUrl>#msn_placemark_square</styleUrl>
				<Point>
						<drawOrder>1</drawOrder>
						<coordinates>57.235033,65.158227,0</coordinates>
				</Point>
		</Placemark>
		<Placemark>
				<name>Калининград </name>
				<LookAt>
						<longitude>20.592508</longitude>
						<latitude>54.885464</latitude>
						<altitude>0</altitude>
						<heading>2.0</heading>
						<tilt>1.0</tilt>
						<range>1000000.00000</range>
						<altitudeMode>relativeToSeaFloor</altitudeMode>
				</LookAt>
				<styleUrl>#msn_placemark_square</styleUrl>
				<Point>
						<drawOrder>1</drawOrder>
						<coordinates>20.592508,54.885464,0</coordinates>
				</Point>
		</Placemark>
		<Placemark>
				<name>Югорск </name>
				<LookAt>
						<longitude>63.604122</longitude>
						<latitude>61.329355</latitude>
						<altitude>0</altitude>
						<heading>2.0</heading>
						<tilt>1.0</tilt>
						<range>1000000.00000</range>
						<altitudeMode>relativeToSeaFloor</altitudeMode>
				</LookAt>
				<styleUrl>#msn_placemark_square</styleUrl>
				<Point>
						<drawOrder>1</drawOrder>
						<coordinates>63.604122,61.329355,0</coordinates>
				</Point>
		</Placemark>
		<Placemark>
				<name>Тюмень </name>
				<LookAt>
						<longitude>65.347877</longitude>
						<latitude>57.182007</latitude>
						<altitude>0</altitude>
						<heading>2.0</heading>
						<tilt>1.0</tilt>
						<range>1000000.00000</range>
						<altitudeMode>relativeToSeaFloor</altitudeMode>
				</LookAt>
				<styleUrl>#msn_placemark_square</styleUrl>
				<Point>
						<drawOrder>1</drawOrder>
						<coordinates>65.347877,57.182007,0</coordinates>
				</Point>
		</Placemark>
		<Placemark>
				<name>Екатеринбург </name>
				<LookAt>
						<longitude>60.802462</longitude>
						<latitude>56.749765</latitude>
						<altitude>0</altitude>
						<heading>2.0</heading>
						<tilt>1.0</tilt>
						<range>1000000.00000</range>
						<altitudeMode>relativeToSeaFloor</altitudeMode>
				</LookAt>
				<styleUrl>#msn_placemark_square</styleUrl>
				<Point>
						<drawOrder>1</drawOrder>
						<coordinates>60.802462,56.749765,0</coordinates>
				</Point>
		</Placemark>
		<Placemark>
				<name>Пермь </name>
				<LookAt>
						<longitude>56.017018</longitude>
						<latitude>57.918142</latitude>
						<altitude>0</altitude>
						<heading>2.0</heading>
						<tilt>1.0</tilt>
						<range>1000000.00000</range>
						<altitudeMode>relativeToSeaFloor</altitudeMode>
				</LookAt>
				<styleUrl>#msn_placemark_square</styleUrl>
				<Point>
						<drawOrder>1</drawOrder>
						<coordinates>56.017018,57.918142,0</coordinates>
				</Point>
		</Placemark>
		<Placemark>
				<name>Киров </name>
				<LookAt>
						<longitude>49.347985</longitude>
						<latitude>58.498156</latitude>
						<altitude>0</altitude>
						<heading>2.0</heading>
						<tilt>1.0</tilt>
						<range>1000000.00000</range>
						<altitudeMode>relativeToSeaFloor</altitudeMode>
				</LookAt>
				<styleUrl>#msn_placemark_square</styleUrl>
				<Point>
						<drawOrder>1</drawOrder>
						<coordinates>49.347985,58.498156,0</coordinates>
				</Point>
		</Placemark>
		<Placemark>
				<name>Омск </name>
				<LookAt>
						<longitude>73.315571</longitude>
						<latitude>54.957344</latitude>
						<altitude>0</altitude>
						<heading>2.0</heading>
						<tilt>1.0</tilt>
						<range>1000000.00000</range>
						<altitudeMode>relativeToSeaFloor</altitudeMode>
				</LookAt>
				<styleUrl>#msn_placemark_square</styleUrl>
				<Point>
						<drawOrder>1</drawOrder>
						<coordinates>73.315571,54.957344,0</coordinates>
				</Point>
		</Placemark>
		<Placemark>
				<name>Колпашево </name>
				<LookAt>
						<longitude>82.927773</longitude>
						<latitude>58.324325</latitude>
						<altitude>0</altitude>
						<heading>2.0</heading>
						<tilt>1.0</tilt>
						<range>1000000.00000</range>
						<altitudeMode>relativeToSeaFloor</altitudeMode>
				</LookAt>
				<styleUrl>#msn_placemark_square</styleUrl>
				<Point>
						<drawOrder>1</drawOrder>
						<coordinates>82.927773,58.324325,0</coordinates>
				</Point>
		</Placemark>
		<Placemark>
				<name>Сургут </name>
				<LookAt>
						<longitude>73.41161</longitude>
						<latitude>61.340315</latitude>
						<altitude>0</altitude>
						<heading>2.0</heading>
						<tilt>1.0</tilt>
						<range>1000000.00000</range>
						<altitudeMode>relativeToSeaFloor</altitudeMode>
				</LookAt>
				<styleUrl>#msn_placemark_square</styleUrl>
				<Point>
						<drawOrder>1</drawOrder>
						<coordinates>73.41161,61.340315,0</coordinates>
				</Point>
		</Placemark>
		<Placemark>
				<name>Новосибирск </name>
				<LookAt>
						<longitude>82.662899</longitude>
						<latitude>55.008516</latitude>
						<altitude>0</altitude>
						<heading>2.0</heading>
						<tilt>1.0</tilt>
						<range>1000000.00000</range>
						<altitudeMode>relativeToSeaFloor</altitudeMode>
				</LookAt>
				<styleUrl>#msn_placemark_square</styleUrl>
				<Point>
						<drawOrder>1</drawOrder>
						<coordinates>82.662899,55.008516,0</coordinates>
				</Point>
		</Placemark>
		<Placemark>
				<name>Диксон </name>
				<LookAt>
						<longitude>80.395135</longitude>
						<latitude>73.515398</latitude>
						<altitude>0</altitude>
						<heading>2.0</heading>
						<tilt>1.0</tilt>
						<range>1000000.00000</range>
						<altitudeMode>relativeToSeaFloor</altitudeMode>
				</LookAt>
				<styleUrl>#msn_placemark_square</styleUrl>
				<Point>
						<drawOrder>1</drawOrder>
						<coordinates>80.395135,73.515398,0</coordinates>
				</Point>
		</Placemark>
		<Placemark>
				<name>Новый Уренгой </name>
				<LookAt>
						<longitude>76.521476</longitude>
						<latitude>66.072938</latitude>
						<altitude>0</altitude>
						<heading>2.0</heading>
						<tilt>1.0</tilt>
						<range>1000000.00000</range>
						<altitudeMode>relativeToSeaFloor</altitudeMode>
				</LookAt>
				<styleUrl>#msn_placemark_square</styleUrl>
				<Point>
						<drawOrder>1</drawOrder>
						<coordinates>76.521476,66.072938,0</coordinates>
				</Point>
		</Placemark>
		<Placemark>
				<name>Норильск </name>
				<LookAt>
						<longitude>87.342934</longitude>
						<latitude>69.324514</latitude>
						<altitude>0</altitude>
						<heading>2.0</heading>
						<tilt>1.0</tilt>
						<range>1000000.00000</range>
						<altitudeMode>relativeToSeaFloor</altitudeMode>
				</LookAt>
				<styleUrl>#msn_placemark_square</styleUrl>
				<Point>
						<drawOrder>1</drawOrder>
						<coordinates>87.342934,69.324514,0</coordinates>
				</Point>
		</Placemark>
		<Placemark>
				<name>Хатанга </name>
				<LookAt>
						<longitude>102.481271</longitude>
						<latitude>71.979975</latitude>
						<altitude>0</altitude>
						<heading>2.0</heading>
						<tilt>1.0</tilt>
						<range>1000000.00000</range>
						<altitudeMode>relativeToSeaFloor</altitudeMode>
				</LookAt>
				<styleUrl>#msn_placemark_square</styleUrl>
				<Point>
						<drawOrder>1</drawOrder>
						<coordinates>102.481271,71.979975,0</coordinates>
				</Point>
		</Placemark>
		<Placemark>
				<name>Северо-Енисейский </name>
				<LookAt>
						<longitude>93.015518</longitude>
						<latitude>60.372339</latitude>
						<altitude>0</altitude>
						<heading>2.0</heading>
						<tilt>1.0</tilt>
						<range>1000000.00000</range>
						<altitudeMode>relativeToSeaFloor</altitudeMode>
				</LookAt>
				<styleUrl>#msn_placemark_square</styleUrl>
				<Point>
						<drawOrder>1</drawOrder>
						<coordinates>93.015518,60.372339,0</coordinates>
				</Point>
		</Placemark>
		<Placemark>
				<name>Красноярск </name>
				<LookAt>
						<longitude>92.51454</longitude>
						<latitude>56.174342</latitude>
						<altitude>0</altitude>
						<heading>2.0</heading>
						<tilt>1.0</tilt>
						<range>1000000.00000</range>
						<altitudeMode>relativeToSeaFloor</altitudeMode>
				</LookAt>
				<styleUrl>#msn_placemark_square</styleUrl>
				<Point>
						<drawOrder>1</drawOrder>
						<coordinates>92.51454,56.174342,0</coordinates>
				</Point>
		</Placemark>
		<Placemark>
				<name>Ленск </name>
				<LookAt>
						<longitude>114.831005</longitude>
						<latitude>60.722436</latitude>
						<altitude>0</altitude>
						<heading>2.0</heading>
						<tilt>1.0</tilt>
						<range>1000000.00000</range>
						<altitudeMode>relativeToSeaFloor</altitudeMode>
				</LookAt>
				<styleUrl>#msn_placemark_square</styleUrl>
				<Point>
						<drawOrder>1</drawOrder>
						<coordinates>114.831005,60.722436,0</coordinates>
				</Point>
		</Placemark>
		<Placemark>
				<name>Кызыл </name>
				<LookAt>
						<longitude>94.405001</longitude>
						<latitude>51.676128</latitude>
						<altitude>0</altitude>
						<heading>2.0</heading>
						<tilt>1.0</tilt>
						<range>1000000.00000</range>
						<altitudeMode>relativeToSeaFloor</altitudeMode>
				</LookAt>
				<styleUrl>#msn_placemark_square</styleUrl>
				<Point>
						<drawOrder>1</drawOrder>
						<coordinates>94.405001,51.676128,0</coordinates>
				</Point>
		</Placemark>
		<Placemark>
				<name>Иркутск </name>
				<LookAt>
						<longitude>104.373307</longitude>
						<latitude>52.267639</latitude>
						<altitude>0</altitude>
						<heading>2.0</heading>
						<tilt>1.0</tilt>
						<range>1000000.00000</range>
						<altitudeMode>relativeToSeaFloor</altitudeMode>
				</LookAt>
				<styleUrl>#msn_placemark_square</styleUrl>
				<Point>
						<drawOrder>1</drawOrder>
						<coordinates>104.373307,52.267639,0</coordinates>
				</Point>
		</Placemark>
		<Placemark>
				<name>Вилюйск </name>
				<LookAt>
						<longitude>121.692112</longitude>
						<latitude>63.754795</latitude>
						<altitude>0</altitude>
						<heading>2.0</heading>
						<tilt>1.0</tilt>
						<range>1000000.00000</range>
						<altitudeMode>relativeToSeaFloor</altitudeMode>
				</LookAt>
				<styleUrl>#msn_placemark_square</styleUrl>
				<Point>
						<drawOrder>1</drawOrder>
						<coordinates>121.692112,63.754795,0</coordinates>
				</Point>
		</Placemark>

		<Placemark>
				<name>Удачный </name>
				<LookAt>
						<longitude>112.0379</longitude>
						<latitude>66.400734</latitude>
						<altitude>0</altitude>
						<heading>2.0</heading>
						<tilt>1.0</tilt>
						<range>1000000.00000</range>
						<altitudeMode>relativeToSeaFloor</altitudeMode>
				</LookAt>
				<styleUrl>#msn_placemark_square</styleUrl>
				<Point>
						<drawOrder>1</drawOrder>
						<coordinates>112.0379,66.400734,0</coordinates>
				</Point>
		</Placemark>
		<Placemark>
				<name>Саскылах </name>
				<LookAt>
						<longitude>114.083922</longitude>
						<latitude>71.928093</latitude>
						<altitude>0</altitude>
						<heading>2.0</heading>
						<tilt>1.0</tilt>
						<range>1000000.00000</range>
						<altitudeMode>relativeToSeaFloor</altitudeMode>
				</LookAt>
				<styleUrl>#msn_placemark_square</styleUrl>
				<Point>
						<drawOrder>1</drawOrder>
						<coordinates>114.083922,71.928093,0</coordinates>
				</Point>
		</Placemark>
		<Placemark>
				<name>Тикси </name>
				<LookAt>
						<longitude>128.889199</longitude>
						<latitude>71.697543</latitude>
						<altitude>0</altitude>
						<heading>2.0</heading>
						<tilt>1.0</tilt>
						<range>1000000.00000</range>
						<altitudeMode>relativeToSeaFloor</altitudeMode>
				</LookAt>
				<styleUrl>#msn_placemark_square</styleUrl>
				<Point>
						<drawOrder>1</drawOrder>
						<coordinates>128.889199,71.697543,0</coordinates>
				</Point>
		</Placemark>
		<Placemark>
				<name>Нерюнгри </name>
				<LookAt>
						<longitude>124.704095</longitude>
						<latitude>56.652533</latitude>
						<altitude>0</altitude>
						<heading>2.0</heading>
						<tilt>1.0</tilt>
						<range>1000000.00000</range>
						<altitudeMode>relativeToSeaFloor</altitudeMode>
				</LookAt>
				<styleUrl>#msn_placemark_square</styleUrl>
				<Point>
						<drawOrder>1</drawOrder>
						<coordinates>124.704095,56.652533,0</coordinates>
				</Point>
		</Placemark>
		<Placemark>
				<name>Могоча </name>
				<LookAt>
						<longitude>119.768864</longitude>
						<latitude>53.738027</latitude>
						<altitude>0</altitude>
						<heading>2.0</heading>
						<tilt>1.0</tilt>
						<range>1000000.00000</range>
						<altitudeMode>relativeToSeaFloor</altitudeMode>
				</LookAt>
				<styleUrl>#msn_placemark_square</styleUrl>
				<Point>
						<drawOrder>1</drawOrder>
						<coordinates>119.768864,53.738027,0</coordinates>
				</Point>
		</Placemark>
		<Placemark>
				<name>Чита </name>
				<LookAt>
						<longitude>113.306447</longitude>
						<latitude>52.020576</latitude>
						<altitude>0</altitude>
						<heading>2.0</heading>
						<tilt>1.0</tilt>
						<range>1000000.00000</range>
						<altitudeMode>relativeToSeaFloor</altitudeMode>
				</LookAt>
				<styleUrl>#msn_placemark_square</styleUrl>
				<Point>
						<drawOrder>1</drawOrder>
						<coordinates>113.306447,52.020576,0</coordinates>
				</Point>
		</Placemark>
		<Placemark>
				<name>Советская Гавань </name>
				<LookAt>
						<longitude>140.236918</longitude>
						<latitude>49.03303</latitude>
						<altitude>0</altitude>
						<heading>2.0</heading>
						<tilt>1.0</tilt>
						<range>1000000.00000</range>
						<altitudeMode>relativeToSeaFloor</altitudeMode>
				</LookAt>
				<styleUrl>#msn_placemark_square</styleUrl>
				<Point>
						<drawOrder>1</drawOrder>
						<coordinates>140.236918,49.03303,0</coordinates>
				</Point>
		</Placemark>
		<Placemark>
				<name>Владивосток </name>
				<LookAt>
						<longitude>132.159638</longitude>
						<latitude>43.394005</latitude>
						<altitude>0</altitude>
						<heading>2.0</heading>
						<tilt>1.0</tilt>
						<range>1000000.00000</range>
						<altitudeMode>relativeToSeaFloor</altitudeMode>
				</LookAt>
				<styleUrl>#msn_placemark_square</styleUrl>
				<Point>
						<drawOrder>1</drawOrder>
						<coordinates>132.159638,43.394005,0</coordinates>
				</Point>
		</Placemark>
		<Placemark>
				<name>Благовещенск </name>
				<LookAt>
						<longitude>127.40773</longitude>
						<latitude>50.423914</latitude>
						<altitude>0</altitude>
						<heading>2.0</heading>
						<tilt>1.0</tilt>
						<range>1000000.00000</range>
						<altitudeMode>relativeToSeaFloor</altitudeMode>
				</LookAt>
				<styleUrl>#msn_placemark_square</styleUrl>
				<Point>
						<drawOrder>1</drawOrder>
						<coordinates>127.40773,50.423914,0</coordinates>
				</Point>
		</Placemark>
		<Placemark>
				<name>Тоора Хем </name>
				<LookAt>
						<longitude>96.118293</longitude>
						<latitude>52.472614</latitude>
						<altitude>0</altitude>
						<heading>2.0</heading>
						<tilt>1.0</tilt>
						<range>1000000.00000</range>
						<altitudeMode>relativeToSeaFloor</altitudeMode>
				</LookAt>
				<styleUrl>#msn_placemark_square</styleUrl>
				<Point>
						<drawOrder>1</drawOrder>
						<coordinates>96.118293,52.472614,0</coordinates>
				</Point>
		</Placemark>
		<Placemark>
				<name>Южно-Сахалинск </name>
				<LookAt>
						<longitude>142.722451</longitude>
						<latitude>46.881837</latitude>
						<altitude>0</altitude>
						<heading>2.0</heading>
						<tilt>1.0</tilt>
						<range>1000000.00000</range>
						<altitudeMode>relativeToSeaFloor</altitudeMode>
				</LookAt>
				<styleUrl>#msn_placemark_square</styleUrl>
				<Point>
						<drawOrder>1</drawOrder>
						<coordinates>142.722451,46.881837,0</coordinates>
				</Point>
		</Placemark>
		<Placemark>
				<name>Хабаровск </name>
				<LookAt>
						<longitude>135.169684</longitude>
						<latitude>48.524997</latitude>
						<altitude>0</altitude>
						<heading>2.0</heading>
						<tilt>1.0</tilt>
						<range>1000000.00000</range>
						<altitudeMode>relativeToSeaFloor</altitudeMode>
				</LookAt>
				<styleUrl>#msn_placemark_square</styleUrl>
				<Point>
						<drawOrder>1</drawOrder>
						<coordinates>135.169684,48.524997,0</coordinates>
				</Point>
		</Placemark>
		<Placemark>
				<name>Оха </name>
				<LookAt>
						<longitude>142.961565</longitude>
						<latitude>53.592213</latitude>
						<altitude>0</altitude>
						<heading>2.0</heading>
						<tilt>1.0</tilt>
						<range>1000000.00000</range>
						<altitudeMode>relativeToSeaFloor</altitudeMode>
				</LookAt>
				<styleUrl>#msn_placemark_square</styleUrl>
				<Point>
						<drawOrder>1</drawOrder>
						<coordinates>142.961565,53.592213,0</coordinates>
				</Point>
		</Placemark>
		<Placemark>
				<name>Алдан </name>
				<LookAt>
						<longitude>125.404955</longitude>
						<latitude>58.597905</latitude>
						<altitude>0</altitude>
						<heading>2.0</heading>
						<tilt>1.0</tilt>
						<range>1000000.00000</range>
						<altitudeMode>relativeToSeaFloor</altitudeMode>
				</LookAt>
				<styleUrl>#msn_placemark_square</styleUrl>
				<Point>
						<drawOrder>1</drawOrder>
						<coordinates>125.404955,58.597905,0</coordinates>
				</Point>
		</Placemark>
		<Placemark>
				<name>Якутск </name>
				<LookAt>
						<longitude>129.750527</longitude>
						<latitude>62.087965</latitude>
						<altitude>0</altitude>
						<heading>2.0</heading>
						<tilt>1.0</tilt>
						<range>1000000.00000</range>
						<altitudeMode>relativeToSeaFloor</altitudeMode>
				</LookAt>
				<styleUrl>#msn_placemark_square</styleUrl>
				<Point>
						<drawOrder>1</drawOrder>
						<coordinates>129.750527,62.087965,0</coordinates>
				</Point>
		</Placemark>
		<Placemark>
				<name>Певек </name>
				<LookAt>
						<longitude>170.603023</longitude>
						<latitude>69.788197</latitude>
						<altitude>0</altitude>
						<heading>2.0</heading>
						<tilt>1.0</tilt>
						<range>1000000.00000</range>
						<altitudeMode>relativeToSeaFloor</altitudeMode>
				</LookAt>
				<styleUrl>#msn_placemark_square</styleUrl>
				<Point>
						<drawOrder>1</drawOrder>
						<coordinates>170.603023,69.788197,0</coordinates>
				</Point>
		</Placemark>
		<Placemark>
				<name>Курильск </name>
				<LookAt>
						<longitude>147.953846</longitude>
						<latitude>45.258744</latitude>
						<altitude>0</altitude>
						<heading>2.0</heading>
						<tilt>1.0</tilt>
						<range>1000000.00000</range>
						<altitudeMode>relativeToSeaFloor</altitudeMode>
				</LookAt>
				<styleUrl>#msn_placemark_square</styleUrl>
				<Point>
						<drawOrder>1</drawOrder>
						<coordinates>147.953846,45.258744,0</coordinates>
				</Point>
		</Placemark>
		<Placemark>
				<name>Магадан </name>
				<LookAt>
						<longitude>150.722992</longitude>
						<latitude>59.913866</latitude>
						<altitude>0</altitude>
						<heading>2.0</heading>
						<tilt>1.0</tilt>
						<range>1000000.00000</range>
						<altitudeMode>relativeToSeaFloor</altitudeMode>
				</LookAt>
				<styleUrl>#msn_placemark_square</styleUrl>
				<Point>
						<drawOrder>1</drawOrder>
						<coordinates>150.722992,59.913866,0</coordinates>
				</Point>
		</Placemark>
		<Placemark>
				<name>Петропавловск-Камчатский </name>
				<LookAt>
						<longitude>158.447677</longitude>
						<latitude>53.167419</latitude>
						<altitude>0</altitude>
						<heading>2.0</heading>
						<tilt>1.0</tilt>
						<range>1000000.00000</range>
						<altitudeMode>relativeToSeaFloor</altitudeMode>
				</LookAt>
				<styleUrl>#msn_placemark_square</styleUrl>
				<Point>
						<drawOrder>1</drawOrder>
						<coordinates>158.447677,53.167419,0</coordinates>
				</Point>
		</Placemark>
		<Placemark>
				<name>Анадырь </name>
				<LookAt>
						<longitude>177.738151</longitude>
						<latitude>64.713496</latitude>
						<altitude>0</altitude>
						<heading>2.0</heading>
						<tilt>1.0</tilt>
						<range>1000000.00000</range>
						<altitudeMode>relativeToSeaFloor</altitudeMode>
				</LookAt>
				<styleUrl>#msn_placemark_square</styleUrl>
				<Point>
						<drawOrder>1</drawOrder>
						<coordinates>177.738151,64.713496,0</coordinates>
				</Point>
		</Placemark>
		<Placemark>
				<name>Сусуман </name>
				<LookAt>
						<longitude>148.145931</longitude>
						<latitude>62.766163</latitude>
						<altitude>0</altitude>
						<heading>2.0</heading>
						<tilt>1.0</tilt>
						<range>1000000.00000</range>
						<altitudeMode>relativeToSeaFloor</altitudeMode>
				</LookAt>
				<styleUrl>#msn_placemark_square</styleUrl>
				<Point>
						<drawOrder>1</drawOrder>
						<coordinates>148.145931,62.766163,0</coordinates>
				</Point>
		</Placemark>
		<Placemark>
				<name>Омсукчан </name>
				<LookAt>
						<longitude>155.739496</longitude>
						<latitude>62.458846</latitude>
						<altitude>0</altitude>
						<heading>2.0</heading>
						<tilt>1.0</tilt>
						<range>1000000.00000</range>
						<altitudeMode>relativeToSeaFloor</altitudeMode>
				</LookAt>
				<styleUrl>#msn_placemark_square</styleUrl>
				<Point>
						<drawOrder>1</drawOrder>
						<coordinates>155.739496,62.458846,0</coordinates>
				</Point>
		</Placemark>
		<Placemark>
				<name>Палана </name>
				<LookAt>
						<longitude>159.892777</longitude>
						<latitude>59.083771</latitude>
						<altitude>0</altitude>
						<heading>2.0</heading>
						<tilt>1.0</tilt>
						<range>1000000.00000</range>
						<altitudeMode>relativeToSeaFloor</altitudeMode>
				</LookAt>
				<styleUrl>#msn_placemark_square</styleUrl>
				<Point>
						<drawOrder>1</drawOrder>
						<coordinates>159.892777,59.083771,0</coordinates>
				</Point>
		</Placemark>
		<Placemark>
				<name>Усть-Большерецк </name>
				<LookAt>
						<longitude>156.286157</longitude>
						<latitude>52.825369</latitude>
						<altitude>0</altitude>
						<heading>2.0</heading>
						<tilt>1.0</tilt>
						<range>1000000.00000</range>
						<altitudeMode>relativeToSeaFloor</altitudeMode>
				</LookAt>
				<styleUrl>#msn_placemark_square</styleUrl>
				<Point>
						<drawOrder>1</drawOrder>
						<coordinates>156.286157,52.825369,0</coordinates>
				</Point>
		</Placemark>
		<Placemark>
				<name>Козыревск </name>
				<LookAt>
						<longitude>159.870597</longitude>
						<latitude>56.050488</latitude>
						<altitude>0</altitude>
						<heading>2.0</heading>
						<tilt>1.0</tilt>
						<range>1000000.00000</range>
						<altitudeMode>relativeToSeaFloor</altitudeMode>
				</LookAt>
				<styleUrl>#msn_placemark_square</styleUrl>
				<Point>
						<drawOrder>1</drawOrder>
						<coordinates>159.870597,56.050488,0</coordinates>
				</Point>
		</Placemark>
		<Placemark>
				<name>Жиганск </name>
				<LookAt>
						<longitude>123.362375</longitude>
						<latitude>66.788459</latitude>
						<altitude>0</altitude>
						<heading>2.0</heading>
						<tilt>1.0</tilt>
						<range>1000000.00000</range>
						<altitudeMode>relativeToSeaFloor</altitudeMode>
				</LookAt>
				<styleUrl>#msn_placemark_square</styleUrl>
				<Point>
						<drawOrder>1</drawOrder>
						<coordinates>123.362375,66.788459,0</coordinates>
				</Point>
		</Placemark>
		<Placemark>
				<name>Хандыга </name>
				<LookAt>
						<longitude>135.583438</longitude>
						<latitude>62.645893</latitude>
						<altitude>0</altitude>
						<heading>2.0</heading>
						<tilt>1.0</tilt>
						<range>1000000.00000</range>
						<altitudeMode>relativeToSeaFloor</altitudeMode>
				</LookAt>
				<styleUrl>#msn_placemark_square</styleUrl>
				<Point>
						<drawOrder>1</drawOrder>
						<coordinates>135.583438,62.645893,0</coordinates>
				</Point>
		</Placemark>
		<Placemark>
				<name>Мирный </name>
				<LookAt>
						<longitude>114.027135</longitude>
						<latitude>62.532943</latitude>
						<altitude>0</altitude>
						<heading>2.0</heading>
						<tilt>1.0</tilt>
						<range>1000000.00000</range>
						<altitudeMode>relativeToSeaFloor</altitudeMode>
				</LookAt>
				<styleUrl>#msn_placemark_square</styleUrl>
				<Point>
						<drawOrder>1</drawOrder>
						<coordinates>114.027135,62.532943,0</coordinates>
				</Point>
		</Placemark>
		<Placemark>
				<name>Усть-Илимск </name>
				<LookAt>
						<longitude>102.569017</longitude>
						<latitude>58.134093</latitude>
						<altitude>0</altitude>
						<heading>2.0</heading>
						<tilt>1.0</tilt>
						<range>1000000.00000</range>
						<altitudeMode>relativeToSeaFloor</altitudeMode>
				</LookAt>
				<styleUrl>#msn_placemark_square</styleUrl>
				<Point>
						<drawOrder>1</drawOrder>
						<coordinates>102.569017,58.134093,0</coordinates>
				</Point>
		</Placemark>
		<Placemark>
				<name>Борзя </name>
				<LookAt>
						<longitude>116.355264</longitude>
						<latitude>50.394835</latitude>
						<altitude>0</altitude>
						<heading>2.0</heading>
						<tilt>1.0</tilt>
						<range>1000000.00000</range>
						<altitudeMode>relativeToSeaFloor</altitudeMode>
				</LookAt>
				<styleUrl>#msn_placemark_square</styleUrl>
				<Point>
						<drawOrder>1</drawOrder>
						<coordinates>116.355264,50.394835,0</coordinates>
				</Point>
		</Placemark>
		<Placemark>
				<name>Улан-Удэ </name>
				<LookAt>
						<longitude>107.444283</longitude>
						<latitude>51.804696</latitude>
						<altitude>0</altitude>
						<heading>2.0</heading>
						<tilt>1.0</tilt>
						<range>1000000.00000</range>
						<altitudeMode>relativeToSeaFloor</altitudeMode>
				</LookAt>
				<styleUrl>#msn_placemark_square</styleUrl>
				<Point>
						<drawOrder>1</drawOrder>
						<coordinates>107.444283,51.804696,0</coordinates>
				</Point>
		</Placemark>
		<Placemark>
				<name>Абакан </name>
				<LookAt>
						<longitude>91.401235</longitude>
						<latitude>53.746189</latitude>
						<altitude>0</altitude>
						<heading>2.0</heading>
						<tilt>1.0</tilt>
						<range>1000000.00000</range>
						<altitudeMode>relativeToSeaFloor</altitudeMode>
				</LookAt>
				<styleUrl>#msn_placemark_square</styleUrl>
				<Point>
						<drawOrder>1</drawOrder>
						<coordinates>91.401235,53.746189,0</coordinates>
				</Point>
		</Placemark>
		<Placemark>
				<name>Куанда </name>
				<LookAt>
						<longitude>116.075061</longitude>
						<latitude>56.323230</latitude>
						<altitude>0</altitude>
						<heading>2.0</heading>
						<tilt>1.0</tilt>
						<range>1000000.00000</range>
						<altitudeMode>relativeToSeaFloor</altitudeMode>
				</LookAt>
				<styleUrl>#msn_placemark_square</styleUrl>
				<Point>
						<drawOrder>1</drawOrder>
						<coordinates>116.075061,56.323230,0</coordinates>
				</Point>
		</Placemark>
		<Placemark>
				<name>Горно-Алтайск</name>
				<LookAt>
						<longitude>85.841627777</longitude>
						<latitude>51.97051666</latitude>
						<altitude>0</altitude>
						<heading>2.0</heading>
						<tilt>1.0</tilt>
						<range>1000000.00000</range>
						<altitudeMode>relativeToSeaFloor</altitudeMode>
				</LookAt>
				<styleUrl>#msn_placemark_square</styleUrl>
				<Point>
						<drawOrder>1</drawOrder>
						<coordinates>85.841627777,51.97051666,0</coordinates>
				</Point>
		</Placemark>
		<Placemark>
				<name>Туруханск </name>
				<LookAt>
						<longitude>87.92656</longitude>
						<latitude>65.796159</latitude>
						<altitude>0</altitude>
						<heading>2.0</heading>
						<tilt>1.0</tilt>
						<range>1000000.00000</range>
						<altitudeMode>relativeToSeaFloor</altitudeMode>
				</LookAt>
				<styleUrl>#msn_placemark_square</styleUrl>
				<Point>
						<drawOrder>1</drawOrder>
						<coordinates>87.92656,65.796159,0</coordinates>
				</Point>
		</Placemark>
		<Placemark>
				<name>Тара </name>
				<LookAt>
						<longitude>74.370992</longitude>
						<latitude>56.896187</latitude>
						<altitude>0</altitude>
						<heading>2.0</heading>
						<tilt>1.0</tilt>
						<range>1000000.00000</range>
						<altitudeMode>relativeToSeaFloor</altitudeMode>
				</LookAt>
				<styleUrl>#msn_placemark_square</styleUrl>
				<Point>
						<drawOrder>1</drawOrder>
						<coordinates>74.370992,56.896187,0</coordinates>
				</Point>
		</Placemark>
		<Placemark>
				<name>Астрахань </name>
				<LookAt>
						<longitude>48.002857</longitude>
						<latitude>46.28706</latitude>
						<altitude>0</altitude>
						<heading>2.0</heading>
						<tilt>1.0</tilt>
						<range>1000000.00000</range>
						<altitudeMode>relativeToSeaFloor</altitudeMode>
				</LookAt>
				<styleUrl>#msn_placemark_square</styleUrl>
				<Point>
						<drawOrder>1</drawOrder>
						<coordinates>48.002857,46.28706,0</coordinates>
				</Point>
		</Placemark>
		<Placemark>
				<name>Зея </name>
				<LookAt>
						<longitude>127.088018</longitude>
						<latitude>53.690508</latitude>
						<altitude>0</altitude>
						<heading>2.0</heading>
						<tilt>1.0</tilt>
						<range>1000000.00000</range>
						<altitudeMode>relativeToSeaFloor</altitudeMode>
				</LookAt>
				<styleUrl>#msn_placemark_square</styleUrl>
				<Point>
						<drawOrder>1</drawOrder>
						<coordinates>127.088018,53.690508,0</coordinates>
				</Point>
		</Placemark>
		<Placemark>
				<name>Дальнереченск </name>
				<LookAt>
						<longitude>133.724608</longitude>
						<latitude>45.935445</latitude>
						<altitude>0</altitude>
						<heading>2.0</heading>
						<tilt>1.0</tilt>
						<range>1000000.00000</range>
						<altitudeMode>relativeToSeaFloor</altitudeMode>
				</LookAt>
				<styleUrl>#msn_placemark_square</styleUrl>
				<Point>
						<drawOrder>1</drawOrder>
						<coordinates>133.724608,45.935445,0</coordinates>
				</Point>
		</Placemark>
		<Placemark>
				<name>Киренск </name>
				<LookAt>
						<longitude>108.051841</longitude>
						<latitude>57.770099</latitude>
						<altitude>0</altitude>
						<heading>2.0</heading>
						<tilt>1.0</tilt>
						<range>1000000.00000</range>
						<altitudeMode>relativeToSeaFloor</altitudeMode>
				</LookAt>
				<styleUrl>#msn_placemark_square</styleUrl>
				<Point>
						<drawOrder>1</drawOrder>
						<coordinates>108.051841,57.770099,0</coordinates>
				</Point>
		</Placemark>
		<Placemark>
				<name>Нижневартовск </name>
				<LookAt>
						<longitude>76.492777</longitude>
						<latitude>60.950238</latitude>
						<altitude>0</altitude>
						<heading>2.0</heading>
						<tilt>1.0</tilt>
						<range>1000000.00000</range>
						<altitudeMode>relativeToSeaFloor</altitudeMode>
				</LookAt>
				<styleUrl>#msn_placemark_square</styleUrl>
				<Point>
						<drawOrder>1</drawOrder>
						<coordinates>76.492777,60.950238,0</coordinates>
				</Point>
		</Placemark>
		<Placemark>
				<name>Казань </name>
				<LookAt>
						<longitude>49.298803</longitude>
						<latitude>55.608735</latitude>
						<altitude>0</altitude>
						<heading>2.0</heading>
						<tilt>1.0</tilt>
						<range>1000000.00000</range>
						<altitudeMode>relativeToSeaFloor</altitudeMode>
				</LookAt>
				<styleUrl>#msn_placemark_square</styleUrl>
				<Point>
						<drawOrder>1</drawOrder>
						<coordinates>49.298803,55.608735,0</coordinates>
				</Point>
		</Placemark>
		<Placemark>
				<name>Минеральные Воды </name>
				<LookAt>
						<longitude>43.086879</longitude>
						<latitude>44.218538</latitude>
						<altitude>0</altitude>
						<heading>2.0</heading>
						<tilt>1.0</tilt>
						<range>1000000.00000</range>
						<altitudeMode>relativeToSeaFloor</altitudeMode>
				</LookAt>
				<styleUrl>#msn_placemark_square</styleUrl>
				<Point>
						<drawOrder>1</drawOrder>
						<coordinates>43.086879,44.218538,0</coordinates>
				</Point>
		</Placemark>
		<Placemark>
				<name>Адлер</name>
				<LookAt>
						<longitude>39.947818</longitude>
						<latitude>43.449994</latitude>
						<altitude>0</altitude>
						<heading>2.0</heading>
						<tilt>1.0</tilt>
						<range>1000000.00000</range>
						<altitudeMode>relativeToSeaFloor</altitudeMode>
				</LookAt>
				<styleUrl>#msn_placemark_square</styleUrl>
				<Point>
						<drawOrder>1</drawOrder>
						<coordinates>39.947818,43.449994,0</coordinates>
				</Point>
		</Placemark>
		<Placemark>
				<name>Аэропорт Платов</name>
				<LookAt>
						<longitude>39.911758</longitude>
						<latitude>47.482723</latitude>
						<altitude>0</altitude>
						<heading>2.0</heading>
						<tilt>1.0</tilt>
						<range>1000000.00000</range>
						<altitudeMode>relativeToSeaFloor</altitudeMode>
				</LookAt>
				<styleUrl>#msn_placemark_square</styleUrl>
				<Point>
						<drawOrder>1</drawOrder>
						<coordinates>39.911758,47.482723,0</coordinates>
				</Point>
		</Placemark>
		<Placemark>
				<name>Полины Осипенко</name>
				<LookAt>
						<longitude>136.475487</longitude>
						<latitude>52.438529</latitude>
						<altitude>0</altitude>
						<heading>2.0</heading>
						<tilt>1.0</tilt>
						<range>1000000.00000</range>
						<altitudeMode>relativeToSeaFloor</altitudeMode>
				</LookAt>
				<styleUrl>#msn_placemark_square</styleUrl>
				<Point>
						<drawOrder>1</drawOrder>
						<coordinates>136.475487,52.438529,0</coordinates>
				</Point>
		</Placemark>
		<Placemark>
				<name>Чокурдах</name>
				<LookAt>
						<longitude>147.909255</longitude>
						<latitude>70.622891</latitude>
						<altitude>0</altitude>
						<heading>2.0</heading>
						<tilt>1.0</tilt>
						<range>1000000.00000</range>
						<altitudeMode>relativeToSeaFloor</altitudeMode>
				</LookAt>
				<styleUrl>#msn_placemark_square</styleUrl>
				<Point>
						<drawOrder>1</drawOrder>
						<coordinates>147.909255,70.622891,0</coordinates>
				</Point>
		</Placemark>
		<Placemark>
				<name>Черский</name>
				<LookAt>
						<longitude>161.355862</longitude>
						<latitude>68.739537</latitude>
						<altitude>0</altitude>
						<heading>2.0</heading>
						<tilt>1.0</tilt>
						<range>1000000.00000</range>
						<altitudeMode>relativeToSeaFloor</altitudeMode>
				</LookAt>
				<styleUrl>#msn_placemark_square</styleUrl>
				<Point>
						<drawOrder>1</drawOrder>
						<coordinates>161.355862,68.739537,0</coordinates>
				</Point>
		</Placemark>
		<Placemark>
				<name>Зырянка</name>
				<LookAt>
						<longitude>150.890426</longitude>
						<latitude>65.743731</latitude>
						<altitude>0</altitude>
						<heading>2.0</heading>
						<tilt>1.0</tilt>
						<range>1000000.00000</range>
						<altitudeMode>relativeToSeaFloor</altitudeMode>
				</LookAt>
				<styleUrl>#msn_placemark_square</styleUrl>
				<Point>
						<drawOrder>1</drawOrder>
						<coordinates>150.890426,65.743731,0</coordinates>
				</Point>
		</Placemark>
		<Placemark>
				<name>Батагай</name>
				<LookAt>
						<longitude>134.686574</longitude>
						<latitude>67.649108</latitude>
						<altitude>0</altitude>
						<heading>2.0</heading>
						<tilt>1.0</tilt>
						<range>1000000.00000</range>
						<altitudeMode>relativeToSeaFloor</altitudeMode>
				</LookAt>
				<styleUrl>#msn_placemark_square</styleUrl>
				<Point>
						<drawOrder>1</drawOrder>
						<coordinates>134.686574,67.649108,0</coordinates>
				</Point>
		</Placemark>
		<Placemark>
				<name>Усть-Мая</name>
				<LookAt>
						<longitude>134.452392</longitude>
						<latitude>60.364169</latitude>
						<altitude>0</altitude>
						<heading>2.0</heading>
						<tilt>1.0</tilt>
						<range>1000000.00000</range>
						<altitudeMode>relativeToSeaFloor</altitudeMode>
				</LookAt>
				<styleUrl>#msn_placemark_square</styleUrl>
				<Point>
						<drawOrder>1</drawOrder>
						<coordinates>134.452392,60.364169,0</coordinates>
				</Point>
		</Placemark>
		<Placemark>
				<name>Северобайкальск </name>
				<LookAt>
						<longitude>109.339333</longitude>
						<latitude>55.64132</latitude>
						<altitude>0</altitude>
						<heading>2.0</heading>
						<tilt>1.0</tilt>
						<range>1000000.00000</range>
						<altitudeMode>relativeToSeaFloor</altitudeMode>
				</LookAt>
				<styleUrl>#msn_placemark_square</styleUrl>
				<Point>
						<drawOrder>1</drawOrder>
						<coordinates>109.339333,55.64132,0</coordinates>
				</Point>
		</Placemark>
		
		<Placemark>
				<name>Багдарин</name>
				<LookAt>
						<longitude>113.583715</longitude>
						<latitude>54.44846</latitude>
						<altitude>0</altitude>
						<heading>2.0</heading>
						<tilt>1.0</tilt>
						<range>1000000.00000</range>
						<altitudeMode>relativeToSeaFloor</altitudeMode>
				</LookAt>
				<styleUrl>#msn_placemark_square</styleUrl>
				<Point>
						<drawOrder>1</drawOrder>
						<coordinates>113.583715,54.44846,0</coordinates>
				</Point>
		</Placemark>
		<Placemark>
				<name>Томск</name>
				<LookAt>
						<longitude>85.209619</longitude>
						<latitude>56.387997</latitude>
						<altitude>0</altitude>
						<heading>2.0</heading>
						<tilt>1.0</tilt>
						<range>1000000.00000</range>
						<altitudeMode>relativeToSeaFloor</altitudeMode>
				</LookAt>
				<styleUrl>#msn_placemark_square</styleUrl>
				<Point>
						<drawOrder>1</drawOrder>
						<coordinates>85.209619,56.387997,0</coordinates>
				</Point>
		</Placemark>
		<Placemark>
				<name>Челябинск</name>
				<LookAt>
						<longitude>61.519715</longitude>
						<latitude>55.297356</latitude>
						<altitude>0</altitude>
						<heading>2.0</heading>
						<tilt>1.0</tilt>
						<range>1000000.00000</range>
						<altitudeMode>relativeToSeaFloor</altitudeMode>
				</LookAt>
				<styleUrl>#msn_placemark_square</styleUrl>
				<Point>
						<drawOrder>1</drawOrder>
						<coordinates>61.519715,55.297356,0</coordinates>
				</Point>
		</Placemark>
		<Placemark>
				<name>Мурманск</name>
				<LookAt>
						<longitude>32.758221</longitude>
						<latitude>68.784731</latitude>
						<altitude>0</altitude>
						<heading>2.0</heading>
						<tilt>1.0</tilt>
						<range>1000000.00000</range>
						<altitudeMode>relativeToSeaFloor</altitudeMode>
				</LookAt>
				<styleUrl>#msn_placemark_square</styleUrl>
				<Point>
						<drawOrder>1</drawOrder>
						<coordinates>32.758221,68.784731,0</coordinates>
				</Point>
		</Placemark>
		<Placemark>
				<name>Жуковский</name>
				<LookAt>
						<longitude>38.133604</longitude>
						<latitude>55.573719</latitude>
						<altitude>0</altitude>
						<heading>2.0</heading>
						<tilt>1.0</tilt>
						<range>1000000.00000</range>
						<altitudeMode>relativeToSeaFloor</altitudeMode>
				</LookAt>
				<styleUrl>#msn_placemark_square</styleUrl>
				<Point>
						<drawOrder>1</drawOrder>
						<coordinates>38.133604,55.573719,0</coordinates>
				</Point>
		</Placemark>
<Placemark>
				<name>Охотск </name>
				<LookAt>
						<longitude>143.0633277</longitude>
						<latitude>59.40041388</latitude>
						<altitude>0</altitude>
						<heading>2.0</heading>
						<tilt>1.0</tilt>
						<range>1000000.00000</range>
						<altitudeMode>relativeToSeaFloor</altitudeMode>
				</LookAt>
				<styleUrl>#msn_placemark_square</styleUrl>
				<Point>
						<drawOrder>1</drawOrder>
						<coordinates>143.0633277,59.40041388,0</coordinates>
				</Point>
		</Placemark>
	<Placemark>
				<name>Тиличики</name>
				<LookAt>
						<longitude>166.027093</longitude>
						<latitude>60.383021</latitude>
						<altitude>0</altitude>
						<heading>2.0</heading>
						<tilt>1.0</tilt>
						<range>1000000.00000</range>
						<altitudeMode>relativeToSeaFloor</altitudeMode>
				</LookAt>
				<styleUrl>#msn_placemark_square</styleUrl>
				<Point>
						<drawOrder>1</drawOrder>
						<coordinates>166.027093,60.383021,0</coordinates>
				</Point>
		</Placemark>
		<Placemark>
				<name>Марково </name>
				<LookAt>
						<longitude>170.416667</longitude>
						<latitude>64.666667</latitude>
						<altitude>0</altitude>
						<heading>2.0</heading>
						<tilt>1.0</tilt>
						<range>1000000.00000</range>
						<altitudeMode>relativeToSeaFloor</altitudeMode>
				</LookAt>
				<styleUrl>#msn_placemark_square</styleUrl>
				<Point>
						<drawOrder>1</drawOrder>
						<coordinates>170.416667,64.666667,0</coordinates>
				</Point>
		</Placemark>
		<Placemark>
				<name>Эвенск</name>
				<LookAt>
						<longitude>159.230031</longitude>
						<latitude>61.920005</latitude>
						<altitude>0</altitude>
						<heading>2.0</heading>
						<tilt>1.0</tilt>
						<range>1000000.00000</range>
						<altitudeMode>relativeToSeaFloor</altitudeMode>
				</LookAt>
				<styleUrl>#msn_placemark_square</styleUrl>
				<Point>
						<drawOrder>1</drawOrder>
						<coordinates>159.230031,61.920005,0</coordinates>
				</Point>
		</Placemark>
	<Placemark>
				<name>Никольское</name>
				<LookAt>
						<longitude>166.043534</longitude>
						<latitude>55.177491</latitude>
						<altitude>0</altitude>
						<heading>2.0</heading>
						<tilt>1.0</tilt>
						<range>1000000.00000</range>
						<altitudeMode>relativeToSeaFloor</altitudeMode>
				</LookAt>
				<styleUrl>#msn_placemark_square</styleUrl>
				<Point>
						<drawOrder>1</drawOrder>
						<coordinates>166.043534,55.177491,0</coordinates>
				</Point>
		</Placemark>
		<Placemark>
				<name>Беринговский</name>
				<LookAt>
						<longitude>179.3593333</longitude>
						<latitude>63.0863333</latitude>
						<altitude>0</altitude>
						<heading>2.0</heading>
						<tilt>1.0</tilt>
						<range>1000000.00000</range>
						<altitudeMode>relativeToSeaFloor</altitudeMode>
				</LookAt>
				<styleUrl>#msn_placemark_square</styleUrl>
				<Point>
						<drawOrder>1</drawOrder>
						<coordinates>179.3593333,63.0863333,0</coordinates>
				</Point>
		</Placemark>
		 <Placemark>
				<name>Лаврентия		</name>
				<LookAt>
						<longitude>-171.007832</longitude>
						<latitude>65.584949</latitude>
						<altitude>0</altitude>
						<heading>2.0</heading>
						<tilt>1.0</tilt>
						<range>1000000.00000</range>
						<altitudeMode>relativeToSeaFloor</altitudeMode>
				</LookAt>
				<styleUrl>#msn_placemark_square</styleUrl>
				<Point>
						<drawOrder>1</drawOrder>
						<coordinates>-171.007832,65.584949,0</coordinates>
				</Point>
		</Placemark>
		<Placemark>
				<name>Шмидта		 </name>
				<LookAt>
						<longitude>-179.392482</longitude>
						<latitude>68.872356</latitude>
						<altitude>0</altitude>
						<heading>2.0</heading>
						<tilt>1.0</tilt>
						<range>1000000.00000</range>
						<altitudeMode>relativeToSeaFloor</altitudeMode>
				</LookAt>
				<styleUrl>#msn_placemark_square</styleUrl>
				<Point>
						<drawOrder>1</drawOrder>
						<coordinates>-179.392482,68.872356,0</coordinates>
				</Point>
		</Placemark>
		<Placemark>
				<name>Котельный</name>
				<LookAt>
						<longitude>137.74167</longitude>
						<latitude>75.76667</latitude>
						<altitude>0</altitude>
						<heading>2.0</heading>
						<tilt>1.0</tilt>
						<range>1000000.00000</range>
						<altitudeMode>relativeToSeaFloor</altitudeMode>
				</LookAt>
				<styleUrl>#msn_placemark_square</styleUrl>
				<Point>
						<drawOrder>1</drawOrder>
						<coordinates>137.74167,75.76667,0</coordinates>
				</Point>
		</Placemark>
		<Placemark>
				<name>Усть-Камчатский </name>
				<LookAt>
						<longitude>162.525223</longitude>
						<latitude>56.239432</latitude>
						<altitude>0</altitude>
						<heading>2.0</heading>
						<tilt>1.0</tilt>
						<range>1000000.00000</range>
						<altitudeMode>relativeToSeaFloor</altitudeMode>
				</LookAt>
				<styleUrl>#msn_placemark_square</styleUrl>
				<Point>
						<drawOrder>1</drawOrder>
						<coordinates>162.525223,56.239432,0</coordinates>
				</Point>
		</Placemark>
		<Placemark>
				<name>Мезень </name>
				<LookAt>
						<longitude>44.213050</longitude>
						<latitude>65.869453</latitude>
						<altitude>0</altitude>
						<heading>2.0</heading>
						<tilt>1.0</tilt>
						<range>1000000.00000</range>
						<altitudeMode>relativeToSeaFloor</altitudeMode>
				</LookAt>
				<styleUrl>#msn_placemark_square</styleUrl>
				<Point>
						<drawOrder>1</drawOrder>
						<coordinates>44.213050,65.869453,0</coordinates>
				</Point>
		</Placemark>
		<Placemark>
				<name>Провидения </name>
				<LookAt>
						<longitude>-173.30755</longitude>
						<latitude>64.36234166</latitude>
						<altitude>0</altitude>
						<heading>2.0</heading>
						<tilt>1.0</tilt>
						<range>1000000.00000</range>
						<altitudeMode>relativeToSeaFloor</altitudeMode>
				</LookAt>
				<styleUrl>#msn_placemark_square</styleUrl>
				<Point>
						<drawOrder>1</drawOrder>
						<coordinates>-173.30755,64.36234166,0</coordinates>
				</Point>
		</Placemark>
		<Placemark>
				<name>Врангеля		</name>
				<LookAt>
						<longitude>-178.476200</longitude>
						<latitude>70.997114</latitude>
						<altitude>0</altitude>
						<heading>2.0</heading>
						<tilt>1.0</tilt>
						<range>1000000.00000</range>
						<altitudeMode>relativeToSeaFloor</altitudeMode>
				</LookAt>
				<styleUrl>#msn_placemark_square</styleUrl>
				<Point>
						<drawOrder>1</drawOrder>
						<coordinates>-178.476200,70.997114,0</coordinates>
				</Point>
		</Placemark>
		<Placemark>
				<name>Ташанта</name>
				<LookAt>
						<longitude>89.30861</longitude>
						<latitude>49.7055555</latitude>
						<altitude>0</altitude>
						<heading>2.0</heading>
						<tilt>1.0</tilt>
						<range>1000000.00000</range>
						<altitudeMode>relativeToSeaFloor</altitudeMode>
				</LookAt>
				<styleUrl>#msn_placemark_square</styleUrl>
				<Point>
						<drawOrder>1</drawOrder>
						<coordinates>89.30861,49.7055555,0</coordinates>
				</Point>
		</Placemark>

	</Folder>
</Document>
